[
  {
    "name": "Dibrugarh, Assam",
    "lat": 27.29,
    "lon": 94.54
  },
  {
    "name": "Guwahati, Assam",
    "lat": 26.11,
    "lon": 91.44
  },
  {
    "name": "Pathsala, Bajali, Assam",
    "lat": 26.4994,
    "lon": 91.1786
  },
  {
    "name": "Sivasagar, Assam",
    "lat": 26.59,
    "lon": 94.38
  },
  {
    "name": "Tezpur, Assam",
    "lat": 26.6333,
    "lon": 92.8
  },
  {
    "name": "Hojai, Assam",
    "lat": 26.0002,
    "lon": 92.8576
  },
  {
    "name": "Bokakhat, Assam",
    "lat": 26.38,
    "lon": 93.35
  },
  {
    "name": "Nalbari, Assam",
    "lat": 26.26,
    "lon": 91.26
  },
  {
    "name": "Pathsala, Assam",
    "lat": 26.29,
    "lon": 91.1
  },
  {
    "name": "Barpeta, Assam",
    "lat": 26.19,
    "lon": 90.0
  },
  {
    "name": "Amingaon, Assam",
    "lat": 26.11,
    "lon": 91.41
  },
  {
    "name": "Nagaon, Assam",
    "lat": 26.21,
    "lon": 92.41
  },
  {
    "name": "Morigaon, Assam",
    "lat": 26.15,
    "lon": 92.2
  },
  {
    "name": "Golaghat, Assam",
    "lat": 26.31,
    "lon": 93.58
  },
  {
    "name": "Jorhat, Assam",
    "lat": 26.45,
    "lon": 94.13
  },
  {
    "name": "Majuli, Assam",
    "lat": 26.57,
    "lon": 94.1
  },
  {
    "name": "Duliajan, Assam",
    "lat": 27.22,
    "lon": 95.18
  },
  {
    "name": "Moran, Assam",
    "lat": 27.11,
    "lon": 94.55
  },
  {
    "name": "Tinsukia, Assam",
    "lat": 27.3,
    "lon": 95.22
  },
  {
    "name": "Bongaigaon, Assam",
    "lat": 26.28,
    "lon": 90.34
  },
  {
    "name": "Kokrajhar, Assam",
    "lat": 26.24,
    "lon": 90.16
  },
  {
    "name": "Gossaigaon, Assam",
    "lat": 26.25,
    "lon": 89.59
  },
  {
    "name": "Dhubri, Assam",
    "lat": 26.01,
    "lon": 89.59
  },
  {
    "name": "Goalpara, Assam",
    "lat": 26.1,
    "lon": 90.37
  },
  {
    "name": "Itanagar, Arunachal Pradesh",
    "lat": 27.06,
    "lon": 93.37
  },
  {
    "name": "Shillong, Meghalaya",
    "lat": 25.34,
    "lon": 91.53
  },
  {
    "name": "Silchar, Assam",
    "lat": 24.49,
    "lon": 92.48
  },
  {
    "name": "Sarthebari, Assam",
    "lat": 26.23,
    "lon": 91.1
  },
  {
    "name": "Tamulpur, Assam",
    "lat": 26.38,
    "lon": 91.34
  },
  {
    "name": "Barpeta Road, Assam",
    "lat": 26.3,
    "lon": 90.58
  },
  {
    "name": "Bihpuria, Lakhimpur, Assam",
    "lat": 27.02,
    "lon": 93.88
  },
  {
    "name": "Narayanpur, Lakhimpur, Assam",
    "lat": 26.98,
    "lon": 93.86
  },
  {
    "name": "Laluk, Lakhimpur, Assam",
    "lat": 27.09,
    "lon": 93.99
  },
  {
    "name": "Nowboicha, Lakhimpur, Assam",
    "lat": 27.15,
    "lon": 93.97
  },
  {
    "name": "Dhakuakhana, Lakhimpur, Assam",
    "lat": 27.2,
    "lon": 94.45
  },
  {
    "name": "Boginadi, Lakhimpur, Assam",
    "lat": 27.34,
    "lon": 94.13
  },
  {
    "name": "Panigaon, Lakhimpur, Assam",
    "lat": 27.18,
    "lon": 94.13
  },
  {
    "name": "Azad, Lakhimpur, Assam",
    "lat": 27.16,
    "lon": 94.03
  },
  {
    "name": "Kadam, Lakhimpur, Assam",
    "lat": 27.22,
    "lon": 94.18
  },
  {
    "name": "Harmoti, Lakhimpur, Assam",
    "lat": 27.06,
    "lon": 93.85
  },
  {
    "name": "Bandardewa, Lakhimpur, Assam",
    "lat": 27.08,
    "lon": 93.83
  },
  {
    "name": "Joyhing, Lakhimpur, Assam",
    "lat": 27.24,
    "lon": 94.02
  },
  {
    "name": "Phulbari, Lakhimpur, Assam",
    "lat": 27.05,
    "lon": 93.91
  },
  {
    "name": "Ghilamara, Lakhimpur, Assam",
    "lat": 27.2,
    "lon": 94.34
  },
  {
    "name": "Batowmari, Lakhimpur, Assam",
    "lat": 27.14,
    "lon": 94.39
  },
  {
    "name": "Dhunaguri, Lakhimpur, Assam",
    "lat": 26.96,
    "lon": 93.89
  },
  {
    "name": "Badati, Lakhimpur, Assam",
    "lat": 26.91,
    "lon": 93.92
  },
  {
    "name": "Bongalmora, Lakhimpur, Assam",
    "lat": 27.01,
    "lon": 93.95
  },
  {
    "name": "Islampur, Lakhimpur, Assam",
    "lat": 27.11,
    "lon": 93.92
  },
  {
    "name": "Silapathar, Dhemaji, Assam",
    "lat": 27.59,
    "lon": 94.73
  },
  {
    "name": "Jonai, Dhemaji, Assam",
    "lat": 27.83,
    "lon": 95.16
  },
  {
    "name": "Gogamukh, Dhemaji, Assam",
    "lat": 27.42,
    "lon": 94.34
  },
  {
    "name": "Sissiborgaon, Dhemaji, Assam",
    "lat": 27.49,
    "lon": 94.61
  },
  {
    "name": "Simen Chapori, Dhemaji, Assam",
    "lat": 27.67,
    "lon": 94.88
  },
  {
    "name": "Machkhowa, Dhemaji, Assam",
    "lat": 27.28,
    "lon": 94.46
  },
  {
    "name": "Akajan, Dhemaji, Assam",
    "lat": 27.53,
    "lon": 94.67
  },
  {
    "name": "Kulajan, Dhemaji, Assam",
    "lat": 27.51,
    "lon": 94.63
  },
  {
    "name": "Dimow, Dhemaji, Assam",
    "lat": 27.46,
    "lon": 94.41
  },
  {
    "name": "Bordotpa, Dhemaji, Assam",
    "lat": 27.32,
    "lon": 94.4
  },
  {
    "name": "Butikur, Dhemaji, Assam",
    "lat": 27.35,
    "lon": 94.43
  },
  {
    "name": "Mingmang, Dhemaji, Assam",
    "lat": 27.55,
    "lon": 94.45
  },
  {
    "name": "Muktiar, Dhemaji, Assam",
    "lat": 27.3,
    "lon": 94.35
  },
  {
    "name": "Moridhal, Dhemaji, Assam",
    "lat": 27.34,
    "lon": 94.4
  },
  {
    "name": "Jiadhal, Dhemaji, Assam",
    "lat": 27.35,
    "lon": 94.31
  },
  {
    "name": "Pachim Dhemaji, Dhemaji, Assam",
    "lat": 27.27,
    "lon": 94.3
  },
  {
    "name": "Dekapam, Dhemaji, Assam",
    "lat": 27.75,
    "lon": 95.05
  },
  {
    "name": "Telam, Dhemaji, Assam",
    "lat": 27.85,
    "lon": 95.21
  },
  {
    "name": "Laimekuri, Dhemaji, Assam",
    "lat": 27.88,
    "lon": 95.3
  },
  {
    "name": "Garamur, Majuli, Assam",
    "lat": 26.96,
    "lon": 94.16
  },
  {
    "name": "Kamalabari, Majuli, Assam",
    "lat": 26.94,
    "lon": 94.09
  },
  {
    "name": "Auniati, Majuli, Assam",
    "lat": 26.9,
    "lon": 94.06
  },
  {
    "name": "Jengraimukh, Majuli, Assam",
    "lat": 27.05,
    "lon": 94.27
  },
  {
    "name": "Bongaon, Majuli, Assam",
    "lat": 26.95,
    "lon": 94.15
  },
  {
    "name": "Dakshinpat, Majuli, Assam",
    "lat": 26.88,
    "lon": 94.18
  },
  {
    "name": "Bhogpur, Majuli, Assam",
    "lat": 26.98,
    "lon": 94.12
  },
  {
    "name": "Bengenaati, Majuli, Assam",
    "lat": 26.92,
    "lon": 94.03
  },
  {
    "name": "Salmora, Majuli, Assam",
    "lat": 26.85,
    "lon": 94.25
  },
  {
    "name": "Ratanpur, Majuli, Assam",
    "lat": 27.08,
    "lon": 94.32
  },
  {
    "name": "Nayabazar, Majuli, Assam",
    "lat": 27.02,
    "lon": 94.25
  },
  {
    "name": "Karatipar, Majuli, Assam",
    "lat": 26.88,
    "lon": 94.08
  },
  {
    "name": "Phulani, Majuli, Assam",
    "lat": 27.01,
    "lon": 94.21
  },
  {
    "name": "Molual, Majuli, Assam",
    "lat": 26.96,
    "lon": 94.18
  },
  {
    "name": "Garmur Saru Satra, Majuli, Assam",
    "lat": 26.97,
    "lon": 94.15
  },
  {
    "name": "Natun Bazar, Majuli, Assam",
    "lat": 26.94,
    "lon": 94.11
  },
  {
    "name": "Namoni Majuli, Majuli, Assam",
    "lat": 26.85,
    "lon": 94.01
  },
  {
    "name": "Dergaon, Golaghat, Assam",
    "lat": 26.7,
    "lon": 93.97
  },
  {
    "name": "Sarupathar, Golaghat, Assam",
    "lat": 26.18,
    "lon": 93.87
  },
  {
    "name": "Barpathar, Golaghat, Assam",
    "lat": 26.29,
    "lon": 93.87
  },
  {
    "name": "Numaligarh, Golaghat, Assam",
    "lat": 26.6,
    "lon": 93.73
  },
  {
    "name": "Merapani, Golaghat, Assam",
    "lat": 26.31,
    "lon": 94.11
  },
  {
    "name": "Khumtai, Golaghat, Assam",
    "lat": 26.74,
    "lon": 93.92
  },
  {
    "name": "Furkating, Golaghat, Assam",
    "lat": 26.45,
    "lon": 93.94
  },
  {
    "name": "Kamargaon, Golaghat, Assam",
    "lat": 26.65,
    "lon": 93.68
  },
  {
    "name": "Kohora, Golaghat, Assam",
    "lat": 26.58,
    "lon": 93.39
  },
  {
    "name": "Kaziranga, Golaghat, Assam",
    "lat": 26.57,
    "lon": 93.31
  },
  {
    "name": "Borjuri, Golaghat, Assam",
    "lat": 26.61,
    "lon": 93.28
  },
  {
    "name": "Mohmaiki, Golaghat, Assam",
    "lat": 26.54,
    "lon": 93.61
  },
  {
    "name": "Numaligarh Ref. Township, Golaghat, Assam",
    "lat": 26.62,
    "lon": 93.75
  },
  {
    "name": "Badulipar, Golaghat, Assam",
    "lat": 26.65,
    "lon": 93.81
  },
  {
    "name": "Behora, Golaghat, Assam",
    "lat": 26.52,
    "lon": 93.52
  },
  {
    "name": "Rajabari, Golaghat, Assam",
    "lat": 26.49,
    "lon": 93.47
  },
  {
    "name": "Methoni, Golaghat, Assam",
    "lat": 26.56,
    "lon": 93.41
  },
  {
    "name": "Difloo, Golaghat, Assam",
    "lat": 26.59,
    "lon": 93.33
  },
  {
    "name": "Hatikhuli, Golaghat, Assam",
    "lat": 26.58,
    "lon": 93.42
  },
  {
    "name": "Kuruwabahi, Golaghat, Assam",
    "lat": 26.68,
    "lon": 93.63
  },
  {
    "name": "Teok, Jorhat, Assam",
    "lat": 26.83,
    "lon": 94.41
  },
  {
    "name": "Borholla, Jorhat, Assam",
    "lat": 26.47,
    "lon": 94.14
  },
  {
    "name": "Nakachari, Jorhat, Assam",
    "lat": 26.66,
    "lon": 94.3
  },
  {
    "name": "Cinnamara, Jorhat, Assam",
    "lat": 26.71,
    "lon": 94.2
  },
  {
    "name": "Nimati Ghat, Jorhat, Assam",
    "lat": 26.85,
    "lon": 94.25
  },
  {
    "name": "Pulibor, Jorhat, Assam",
    "lat": 26.75,
    "lon": 94.16
  },
  {
    "name": "Rowriah, Jorhat, Assam",
    "lat": 26.73,
    "lon": 94.17
  },
  {
    "name": "Barbheta, Jorhat, Assam",
    "lat": 26.74,
    "lon": 94.19
  },
  {
    "name": "Bhogdoi, Jorhat, Assam",
    "lat": 26.76,
    "lon": 94.22
  },
  {
    "name": "Kenduguri, Jorhat, Assam",
    "lat": 26.77,
    "lon": 94.24
  },
  {
    "name": "J.P.R, Jorhat, Assam",
    "lat": 26.75,
    "lon": 94.21
  },
  {
    "name": "Lichubari, Jorhat, Assam",
    "lat": 26.72,
    "lon": 94.21
  },
  {
    "name": "Selenghat, Jorhat, Assam",
    "lat": 26.86,
    "lon": 94.49
  },
  {
    "name": "Deberapar, Jorhat, Assam",
    "lat": 26.82,
    "lon": 94.44
  },
  {
    "name": "Kakojan, Jorhat, Assam",
    "lat": 26.8,
    "lon": 94.34
  },
  {
    "name": "Kaliapani, Jorhat, Assam",
    "lat": 26.85,
    "lon": 94.36
  },
  {
    "name": "Dhali, Jorhat, Assam",
    "lat": 26.81,
    "lon": 94.46
  },
  {
    "name": "Borhulla, Jorhat, Assam",
    "lat": 26.51,
    "lon": 94.15
  },
  {
    "name": "Madhipur, Jorhat, Assam",
    "lat": 26.68,
    "lon": 94.18
  },
  {
    "name": "Garmur, Jorhat, Assam",
    "lat": 26.78,
    "lon": 94.22
  },
  {
    "name": "Baligaon, Jorhat, Assam",
    "lat": 26.79,
    "lon": 94.15
  },
  {
    "name": "Amguri, Sivasagar, Assam",
    "lat": 26.8,
    "lon": 94.53
  },
  {
    "name": "Demow, Sivasagar, Assam",
    "lat": 27.12,
    "lon": 94.74
  },
  {
    "name": "Geleki, Sivasagar, Assam",
    "lat": 26.78,
    "lon": 94.66
  },
  {
    "name": "Sonari, Charaideo, Assam",
    "lat": 27.02,
    "lon": 95.03
  },
  {
    "name": "Moranhat, Charaideo, Assam",
    "lat": 27.18,
    "lon": 94.92
  },
  {
    "name": "Dikhowmukh, Sivasagar, Assam",
    "lat": 27.01,
    "lon": 94.45
  },
  {
    "name": "Gargaon, Sivasagar, Assam",
    "lat": 26.93,
    "lon": 94.75
  },
  {
    "name": "Namti, Sivasagar, Assam",
    "lat": 26.85,
    "lon": 94.61
  },
  {
    "name": "Jhanji, Sivasagar, Assam",
    "lat": 26.89,
    "lon": 94.43
  },
  {
    "name": "Gaurisagar, Sivasagar, Assam",
    "lat": 26.93,
    "lon": 94.57
  },
  {
    "name": "Nazira, Sivasagar, Assam",
    "lat": 26.92,
    "lon": 94.73
  },
  {
    "name": "Simaluguri, Sivasagar, Assam",
    "lat": 26.9,
    "lon": 94.77
  },
  {
    "name": "Santak, Sivasagar, Assam",
    "lat": 26.85,
    "lon": 94.82
  },
  {
    "name": "Banmukh, Sivasagar, Assam",
    "lat": 26.96,
    "lon": 94.65
  },
  {
    "name": "Joysagar, Sivasagar, Assam",
    "lat": 26.95,
    "lon": 94.61
  },
  {
    "name": "Namrup, Dibrugarh, Assam",
    "lat": 27.18,
    "lon": 95.33
  },
  {
    "name": "Tengakhat, Dibrugarh, Assam",
    "lat": 27.31,
    "lon": 95.16
  },
  {
    "name": "Chabua, Dibrugarh, Assam",
    "lat": 27.48,
    "lon": 95.17
  },
  {
    "name": "Tingkhong, Dibrugarh, Assam",
    "lat": 27.14,
    "lon": 95.09
  },
  {
    "name": "Khowang, Dibrugarh, Assam",
    "lat": 27.26,
    "lon": 94.89
  },
  {
    "name": "Naharkatia, Dibrugarh, Assam",
    "lat": 27.28,
    "lon": 95.33
  },
  {
    "name": "Jaipur, Dibrugarh, Assam",
    "lat": 27.27,
    "lon": 95.38
  },
  {
    "name": "Barbarua, Dibrugarh, Assam",
    "lat": 27.42,
    "lon": 94.9
  },
  {
    "name": "Lahowal, Dibrugarh, Assam",
    "lat": 27.48,
    "lon": 95.02
  },
  {
    "name": "Dikom, Dibrugarh, Assam",
    "lat": 27.5,
    "lon": 95.1
  },
  {
    "name": "Rajgarh, Dibrugarh, Assam",
    "lat": 27.18,
    "lon": 95.12
  },
  {
    "name": "Lepetkata, Dibrugarh, Assam",
    "lat": 27.38,
    "lon": 94.88
  },
  {
    "name": "Moran, Dibrugarh, Assam",
    "lat": 27.18,
    "lon": 94.93
  },
  {
    "name": "Rohmoria, Dibrugarh, Assam",
    "lat": 27.58,
    "lon": 95.12
  },
  {
    "name": "Margherita, Tinsukia, Assam",
    "lat": 27.28,
    "lon": 95.67
  },
  {
    "name": "Makum, Tinsukia, Assam",
    "lat": 27.5,
    "lon": 95.44
  },
  {
    "name": "Sadiya, Tinsukia, Assam",
    "lat": 27.83,
    "lon": 95.67
  },
  {
    "name": "Kakopathar, Tinsukia, Assam",
    "lat": 27.63,
    "lon": 95.51
  },
  {
    "name": "Panitola, Tinsukia, Assam",
    "lat": 27.53,
    "lon": 95.22
  },
  {
    "name": "Digboi Oil Town, Tinsukia, Assam",
    "lat": 27.38,
    "lon": 95.63
  },
  {
    "name": "Doom Dooma, Tinsukia, Assam",
    "lat": 27.57,
    "lon": 95.57
  },
  {
    "name": "Makum Junction, Tinsukia, Assam",
    "lat": 27.51,
    "lon": 95.45
  },
  {
    "name": "Margherita Coal Town, Tinsukia, Assam",
    "lat": 27.29,
    "lon": 95.68
  },
  {
    "name": "Ledo, Tinsukia, Assam",
    "lat": 27.29,
    "lon": 95.74
  },
  {
    "name": "Lekhapani, Tinsukia, Assam",
    "lat": 27.31,
    "lon": 95.83
  },
  {
    "name": "Talap, Tinsukia, Assam",
    "lat": 27.63,
    "lon": 95.63
  },
  {
    "name": "Saikhowaghat, Tinsukia, Assam",
    "lat": 27.78,
    "lon": 95.61
  },
  {
    "name": "Guijan, Tinsukia, Assam",
    "lat": 27.58,
    "lon": 95.33
  },
  {
    "name": "Jagun, Tinsukia, Assam",
    "lat": 27.25,
    "lon": 95.91
  },
  {
    "name": "New Bongaigaon, Bongaigaon, Assam",
    "lat": 26.29,
    "lon": 90.52
  },
  {
    "name": "Bijni, Chirang, Assam",
    "lat": 26.31,
    "lon": 90.53
  },
  {
    "name": "Basugaon, Chirang, Assam",
    "lat": 26.31,
    "lon": 90.41
  },
  {
    "name": "Boitamari, Bongaigaon, Assam",
    "lat": 26.23,
    "lon": 90.58
  },
  {
    "name": "Mererchar, Bongaigaon, Assam",
    "lat": 26.06,
    "lon": 90.35
  },
  {
    "name": "Jogighopa, Bongaigaon, Assam",
    "lat": 26.13,
    "lon": 90.34
  },
  {
    "name": "Manikpur, Bongaigaon, Assam",
    "lat": 26.23,
    "lon": 90.38
  },
  {
    "name": "Srijangram, Bongaigaon, Assam",
    "lat": 26.19,
    "lon": 90.45
  },
  {
    "name": "Chalantapara, Bongaigaon, Assam",
    "lat": 26.15,
    "lon": 90.53
  },
  {
    "name": "Lengtisinga, Bongaigaon, Assam",
    "lat": 26.1,
    "lon": 90.37
  },
  {
    "name": "Fakiragram, Kokrajhar, Assam",
    "lat": 26.3,
    "lon": 90.08
  },
  {
    "name": "Gossaigaon Hat, Kokrajhar, Assam",
    "lat": 26.43,
    "lon": 89.96
  },
  {
    "name": "Tipkai, Kokrajhar, Assam",
    "lat": 26.32,
    "lon": 90.0
  },
  {
    "name": "Kachugaon, Kokrajhar, Assam",
    "lat": 26.54,
    "lon": 90.04
  },
  {
    "name": "Dotma, Kokrajhar, Assam",
    "lat": 26.37,
    "lon": 90.11
  },
  {
    "name": "Balajan, Kokrajhar, Assam",
    "lat": 26.21,
    "lon": 90.2
  },
  {
    "name": "Serfanguri, Kokrajhar, Assam",
    "lat": 26.51,
    "lon": 90.14
  },
  {
    "name": "Patgaon, Kokrajhar, Assam",
    "lat": 26.50,
    "lon": 90.25
  },
  {
    "name": "Tulshibil, Kokrajhar, Assam",
    "lat": 26.48,
    "lon": 89.98
  },
  {
    "name": "Kajalgaon, Chirang, Assam",
    "lat": 26.51,
    "lon": 90.49
  },
  {
    "name": "Gauripur, Dhubri, Assam",
    "lat": 26.08,
    "lon": 89.97
  },
  {
    "name": "Golakganj, Dhubri, Assam",
    "lat": 26.13,
    "lon": 89.84
  },
  {
    "name": "Agomani, Dhubri, Assam",
    "lat": 26.19,
    "lon": 89.84
  },
  {
    "name": "Sapatgram, Dhubri, Assam",
    "lat": 26.33,
    "lon": 90.13
  },
  {
    "name": "Chapar, Dhubri, Assam",
    "lat": 26.27,
    "lon": 90.46
  },
  {
    "name": "South Salmara, South Salmara, Assam",
    "lat": 25.81,
    "lon": 89.94
  },
  {
    "name": "Hatsingimari, South Salmara, Assam",
    "lat": 25.68,
    "lon": 89.88
  },
  {
    "name": "Mankachar, South Salmara, Assam",
    "lat": 25.53,
    "lon": 89.86
  },
  {
    "name": "Sukchar, South Salmara, Assam",
    "lat": 25.75,
    "lon": 89.88
  },
  {
    "name": "Athani, Dhubri, Assam",
    "lat": 26.03,
    "lon": 90.04
  },
  {
    "name": "Lakhipur, Goalpara, Assam",
    "lat": 26.0,
    "lon": 90.3
  },
  {
    "name": "Balijana, Goalpara, Assam",
    "lat": 26.06,
    "lon": 90.38
  },
  {
    "name": "Matia, Goalpara, Assam",
    "lat": 26.12,
    "lon": 90.58
  },
  {
    "name": "Agia, Goalpara, Assam",
    "lat": 26.08,
    "lon": 90.46
  },
  {
    "name": "Rangjuli, Goalpara, Assam",
    "lat": 25.96,
    "lon": 90.76
  },
  {
    "name": "Krishnai, Goalpara, Assam",
    "lat": 26.01,
    "lon": 90.54
  },
  {
    "name": "Morrowa, Goalpara, Assam",
    "lat": 26.15,
    "lon": 90.62
  },
  {
    "name": "Tiplai, Goalpara, Assam",
    "lat": 26.01,
    "lon": 90.71
  },
  {
    "name": "Bikali, Goalpara, Assam",
    "lat": 25.98,
    "lon": 90.66
  },
  {
    "name": "Solmari, Goalpara, Assam",
    "lat": 26.12,
    "lon": 90.41
  },
  {
    "name": "Raha, Nagaon, Assam",
    "lat": 26.23,
    "lon": 92.51
  },
  {
    "name": "Dhing, Nagaon, Assam",
    "lat": 26.46,
    "lon": 92.46
  },
  {
    "name": "Samaguri, Nagaon, Assam",
    "lat": 26.37,
    "lon": 92.83
  },
  {
    "name": "Kaliabor, Nagaon, Assam",
    "lat": 26.51,
    "lon": 92.98
  },
  {
    "name": "Puranigudam, Nagaon, Assam",
    "lat": 26.33,
    "lon": 92.77
  },
  {
    "name": "Kampur, Nagaon, Assam",
    "lat": 26.15,
    "lon": 92.62
  },
  {
    "name": "Jakhalabandha, Nagaon, Assam",
    "lat": 26.58,
    "lon": 93.0
  },
  {
    "name": "Jagiroad, Morigaon, Assam",
    "lat": 26.11,
    "lon": 92.21
  },
  {
    "name": "Mayang, Morigaon, Assam",
    "lat": 26.24,
    "lon": 92.04
  },
  {
    "name": "Bhuragaon, Morigaon, Assam",
    "lat": 26.34,
    "lon": 92.26
  },
  {
    "name": "Laharighat, Morigaon, Assam",
    "lat": 26.32,
    "lon": 92.31
  },
  {
    "name": "Dharamtul, Morigaon, Assam",
    "lat": 26.14,
    "lon": 92.35
  },
  {
    "name": "Mikirbheta, Morigaon, Assam",
    "lat": 26.21,
    "lon": 92.27
  },
  {
    "name": "Doboka, Hojai, Assam",
    "lat": 26.0,
    "lon": 92.85
  },
  {
    "name": "Lanka, Hojai, Assam",
    "lat": 25.92,
    "lon": 92.95
  },
  {
    "name": "Lumding, Hojai, Assam",
    "lat": 25.75,
    "lon": 93.17
  },
  {
    "name": "Kheroni, Hojai, Assam",
    "lat": 25.9,
    "lon": 92.75
  },
  {
    "name": "Nilbagan, Hojai, Assam",
    "lat": 26.06,
    "lon": 92.83
  },
  {
    "name": "Jugijan, Hojai, Assam",
    "lat": 26.04,
    "lon": 92.91
  },
  {
    "name": "Binakandi, Hojai, Assam",
    "lat": 26.08,
    "lon": 92.94
  },
  {
    "name": "Udali, Hojai, Assam",
    "lat": 26.0,
    "lon": 93.01
  },
  {
    "name": "Modertoli, Hojai, Assam",
    "lat": 26.04,
    "lon": 92.8
  },
  {
    "name": "Kapasbari, Hojai, Assam",
    "lat": 26.02,
    "lon": 92.71
  },
  {
    "name": "Bokajan, Karbi Anglong, Assam",
    "lat": 26.01,
    "lon": 93.78
  },
  {
    "name": "Dokmoka, Karbi Anglong, Assam",
    "lat": 26.22,
    "lon": 93.12
  },
  {
    "name": "Howraghat, Karbi Anglong, Assam",
    "lat": 26.15,
    "lon": 93.03
  },
  {
    "name": "Bakalia, Karbi Anglong, Assam",
    "lat": 26.38,
    "lon": 93.22
  },
  {
    "name": "Manja, Karbi Anglong, Assam",
    "lat": 25.81,
    "lon": 93.52
  },
  {
    "name": "Hamren, West Karbi Anglong, Assam",
    "lat": 25.85,
    "lon": 92.55
  },
  {
    "name": "Baithalangso, West Karbi Anglong, Assam",
    "lat": 25.92,
    "lon": 92.51
  },
  {
    "name": "Donkamokam, West Karbi Anglong, Assam",
    "lat": 25.98,
    "lon": 92.68
  },
  {
    "name": "Khatkhati, Karbi Anglong, Assam",
    "lat": 25.96,
    "lon": 93.75
  },
  {
    "name": "Borpathar, Karbi Anglong, Assam",
    "lat": 26.12,
    "lon": 93.85
  },
  {
    "name": "Chaygaon, Kamrup, Assam",
    "lat": 26.04,
    "lon": 91.38
  },
  {
    "name": "Boko, Kamrup, Assam",
    "lat": 25.97,
    "lon": 91.23
  },
  {
    "name": "Palashbari, Kamrup, Assam",
    "lat": 26.13,
    "lon": 91.5
  },
  {
    "name": "Mirza, Kamrup, Assam",
    "lat": 26.1,
    "lon": 91.52
  },
  {
    "name": "Bijoynagar, Kamrup, Assam",
    "lat": 26.11,
    "lon": 91.5
  },
  {
    "name": "Goroimari, Kamrup, Assam",
    "lat": 26.12,
    "lon": 91.18
  },
  {
    "name": "Rampur, Kamrup, Assam",
    "lat": 26.08,
    "lon": 91.45
  },
  {
    "name": "Nagarbera, Kamrup, Assam",
    "lat": 26.1,
    "lon": 90.95
  },
  {
    "name": "Chamaria, Kamrup, Assam",
    "lat": 26.15,
    "lon": 91.05
  },
  {
    "name": "Sualkuchi, Kamrup, Assam",
    "lat": 26.17,
    "lon": 91.58
  },
  {
    "name": "Bamunigaon, Kamrup, Assam",
    "lat": 25.95,
    "lon": 91.15
  },
  {
    "name": "Rangia, Kamrup Rural, Assam",
    "lat": 26.44,
    "lon": 91.62
  },
  {
    "name": "Hajo, Kamrup Rural, Assam",
    "lat": 26.25,
    "lon": 91.53
  },
  {
    "name": "Baihata Chariali, Kamrup Rural, Assam",
    "lat": 26.34,
    "lon": 91.72
  },
  {
    "name": "Changsari, Kamrup Rural, Assam",
    "lat": 26.23,
    "lon": 91.67
  },
  {
    "name": "Kamalpur, Kamrup Rural, Assam",
    "lat": 26.37,
    "lon": 91.67
  },
  {
    "name": "Baghmari, Biswanath, Assam",
    "lat": 26.75,
    "lon": 93.12
  },
  {
    "name": "Monabari, Biswanath, Assam",
    "lat": 26.78,
    "lon": 93.2
  },
  {
    "name": "Gingia, Biswanath, Assam",
    "lat": 26.82,
    "lon": 93.25
  },
  {
    "name": "Balipukhuri, Biswanath, Assam",
    "lat": 26.71,
    "lon": 93.15
  },
  {
    "name": "Sakomato, Biswanath, Assam",
    "lat": 26.74,
    "lon": 93.18
  },
  {
    "name": "Pratapgarh, Biswanath, Assam",
    "lat": 26.72,
    "lon": 93.22
  },
  {
    "name": "Borgang, Biswanath, Assam",
    "lat": 26.83,
    "lon": 93.35
  },
  {
    "name": "Mijikajan, Biswanath, Assam",
    "lat": 26.86,
    "lon": 93.4
  },
  {
    "name": "Dufflaghur, Biswanath, Assam",
    "lat": 26.91,
    "lon": 93.5
  },
  {
    "name": "Bedeti, Biswanath, Assam",
    "lat": 26.83,
    "lon": 93.38
  },
  {
    "name": "Brahmajan, Biswanath, Assam",
    "lat": 26.89,
    "lon": 93.58
  },
  {
    "name": "Nyayabazar, Biswanath, Assam",
    "lat": 26.85,
    "lon": 93.45
  },
  {
    "name": "Gamiri, Biswanath, Assam",
    "lat": 26.85,
    "lon": 93.72
  },
  {
    "name": "Sarthebari, Barpeta, Assam",
    "lat": 26.36,
    "lon": 91.21
  },
  {
    "name": "Howly, Barpeta, Assam",
    "lat": 26.43,
    "lon": 90.97
  },
  {
    "name": "Sorbhog, Barpeta, Assam",
    "lat": 26.5,
    "lon": 90.88
  },
  {
    "name": "Barpeta Road, Barpeta, Assam",
    "lat": 26.5,
    "lon": 90.97
  },
  {
    "name": "Kalgachia, Barpeta, Assam",
    "lat": 26.23,
    "lon": 90.73
  },
  {
    "name": "Tarabari, Barpeta, Assam",
    "lat": 26.15,
    "lon": 90.91
  },
  {
    "name": "Mandia, Barpeta, Assam",
    "lat": 26.25,
    "lon": 90.83
  },
  {
    "name": "Jania, Barpeta, Assam",
    "lat": 26.3,
    "lon": 90.8
  },
  {
    "name": "Chenga, Barpeta, Assam",
    "lat": 26.26,
    "lon": 91.13
  },
  {
    "name": "Bhowanipur, Bajali, Assam",
    "lat": 26.48,
    "lon": 91.1
  },
  {
    "name": "Patacharkuchi, Bajali, Assam",
    "lat": 26.52,
    "lon": 91.18
  },
  {
    "name": "Tihu, Bajali, Assam",
    "lat": 26.49,
    "lon": 91.27
  },
  {
    "name": "Choukhuti, Bajali, Assam",
    "lat": 26.56,
    "lon": 91.12
  },
  {
    "name": "Nalbari Town, Nalbari, Assam",
    "lat": 26.45,
    "lon": 91.44
  },
  {
    "name": "Ghograpar, Nalbari, Assam",
    "lat": 26.5,
    "lon": 91.5
  },
  {
    "name": "Mukalmua, Nalbari, Assam",
    "lat": 26.25,
    "lon": 91.25
  },
  {
    "name": "Barkhetri, Nalbari, Assam",
    "lat": 26.21,
    "lon": 91.22
  },
  {
    "name": "Chamata, Nalbari, Assam",
    "lat": 26.38,
    "lon": 91.35
  },
  {
    "name": "Belsor, Nalbari, Assam",
    "lat": 26.37,
    "lon": 91.4
  },
  {
    "name": "Balitara, Nalbari, Assam",
    "lat": 26.53,
    "lon": 91.42
  },
  {
    "name": "Kamarkuchi, Nalbari, Assam",
    "lat": 26.48,
    "lon": 91.49
  },
  {
    "name": "Dispur, Kamrup Metro, Assam",
    "lat": 26.14,
    "lon": 91.79
  },
  {
    "name": "Maligaon, Kamrup Metro, Assam",
    "lat": 26.15,
    "lon": 91.69
  },
  {
    "name": "Azara, Kamrup Metro, Assam",
    "lat": 26.12,
    "lon": 91.6
  },
  {
    "name": "Chandrapur, Kamrup Metro, Assam",
    "lat": 26.18,
    "lon": 91.93
  },
  {
    "name": "Sonapur, Kamrup Metro, Assam",
    "lat": 26.12,
    "lon": 91.97
  },
  {
    "name": "Khanapara, Kamrup Metro, Assam",
    "lat": 26.11,
    "lon": 91.82
  },
  {
    "name": "Narengi, Kamrup Metro, Assam",
    "lat": 26.16,
    "lon": 91.84
  },
  {
    "name": "Beltola, Kamrup Metro, Assam",
    "lat": 26.11,
    "lon": 91.79
  },
  {
    "name": "Panbazar, Kamrup Metro, Assam",
    "lat": 26.18,
    "lon": 91.74
  },
  {
    "name": "North Guwahati, Kamrup Metro, Assam",
    "lat": 26.21,
    "lon": 91.72
  },
  {
    "name": "Khetri, Kamrup Metro, Assam",
    "lat": 26.11,
    "lon": 92.11
  },
  {
    "name": "Jalukbari, Kamrup Metro, Assam",
    "lat": 26.14,
    "lon": 91.66
  },
  {
    "name": "Borjhar Airport, Kamrup Metro, Assam",
    "lat": 26.11,
    "lon": 91.59
  },
  {
    "name": "Daporijo, Arunachal",
    "lat": 27.98,
    "lon": 94.22
  },
  {
    "name": "Aalo, Arunachal",
    "lat": 28.17,
    "lon": 94.8
  },
  {
    "name": "Changlang, Arunachal",
    "lat": 27.12,
    "lon": 95.73
  },
  {
    "name": "Khonsa, Arunachal",
    "lat": 27.01,
    "lon": 95.53
  },
  {
    "name": "Seppa, Arunachal",
    "lat": 27.36,
    "lon": 93.32
  },
  {
    "name": "Yingkiong, Arunachal",
    "lat": 28.61,
    "lon": 95.04
  },
  {
    "name": "Miao, Arunachal",
    "lat": 27.49,
    "lon": 95.92
  },
  {
    "name": "Mawsynram, Meghalaya",
    "lat": 25.3,
    "lon": 91.58
  },
  {
    "name": "Dawki, Meghalaya",
    "lat": 25.18,
    "lon": 92.01
  },
  {
    "name": "Nongstoin, Meghalaya",
    "lat": 25.52,
    "lon": 91.26
  },
  {
    "name": "Khliehriat, Meghalaya",
    "lat": 25.36,
    "lon": 92.36
  },
  {
    "name": "Resubelpara, Meghalaya",
    "lat": 25.9,
    "lon": 90.6
  },
  {
    "name": "Mawkyrwat, Meghalaya",
    "lat": 25.3,
    "lon": 91.45
  },
  {
    "name": "Ampati, Meghalaya",
    "lat": 25.46,
    "lon": 89.93
  },
  {
    "name": "Sonai, Cachar",
    "lat": 24.67,
    "lon": 92.86
  },
  {
    "name": "Dholai, Cachar",
    "lat": 24.6,
    "lon": 92.85
  },
  {
    "name": "Udharbond, Cachar",
    "lat": 24.87,
    "lon": 92.92
  },
  {
    "name": "Katigorah, Cachar",
    "lat": 24.88,
    "lon": 92.58
  },
  {
    "name": "Badarpur, Karimganj",
    "lat": 24.89,
    "lon": 92.6
  },
  {
    "name": "Patharkandi, Karimganj",
    "lat": 24.61,
    "lon": 92.31
  },
  {
    "name": "Ramkrishna Nagar, Karimganj",
    "lat": 24.58,
    "lon": 92.48
  },
  {
    "name": "Lala, Hailakandi",
    "lat": 24.55,
    "lon": 92.54
  },
  {
    "name": "Algapur, Hailakandi",
    "lat": 24.75,
    "lon": 92.59
  },
  {
    "name": "Agartala, Tripura",
    "lat": 23.83,
    "lon": 91.28
  },
  {
    "name": "Dharmanagar, Tripura",
    "lat": 24.37,
    "lon": 92.16
  },
  {
    "name": "Kailashahar, Tripura",
    "lat": 24.31,
    "lon": 92.01
  },
  {
    "name": "Udaipur, Tripura",
    "lat": 23.53,
    "lon": 91.48
  },
  {
    "name": "Belonia, Tripura",
    "lat": 23.25,
    "lon": 91.45
  },
  {
    "name": "Ambassa, Tripura",
    "lat": 23.92,
    "lon": 91.85
  },
  {
    "name": "Kohima, Nagaland",
    "lat": 25.67,
    "lon": 94.1
  },
  {
    "name": "Dimapur, Nagaland",
    "lat": 25.86,
    "lon": 93.73
  },
  {
    "name": "Mokokchung, Nagaland",
    "lat": 26.33,
    "lon": 94.53
  },
  {
    "name": "Tuensang, Nagaland",
    "lat": 26.28,
    "lon": 94.83
  },
  {
    "name": "Wokha, Nagaland",
    "lat": 26.1,
    "lon": 94.25
  },
  {
    "name": "Zunheboto, Nagaland",
    "lat": 25.96,
    "lon": 94.48
  },
  {
    "name": "Imphal, Manipur",
    "lat": 24.81,
    "lon": 93.93
  },
  {
    "name": "Churachandpur, Manipur",
    "lat": 24.33,
    "lon": 93.66
  },
  {
    "name": "Thoubal, Manipur",
    "lat": 24.63,
    "lon": 93.98
  },
  {
    "name": "Ukhrul, Manipur",
    "lat": 25.11,
    "lon": 94.36
  },
  {
    "name": "Senapati, Manipur",
    "lat": 25.26,
    "lon": 94.02
  },
  {
    "name": "Jiribam, Manipur",
    "lat": 24.79,
    "lon": 93.11
  },
  {
    "name": "Mushalpur, Baksa, Assam",
    "lat": 26.58,
    "lon": 91.38
  },
  {
    "name": "Salbari, Baksa, Assam",
    "lat": 26.63,
    "lon": 90.96
  },
  {
    "name": "Barama, Baksa, Assam",
    "lat": 26.46,
    "lon": 91.36
  },
  {
    "name": "Baganpara, Baksa, Assam",
    "lat": 26.54,
    "lon": 91.43
  },
  {
    "name": "Nikashi, Baksa, Assam",
    "lat": 26.64,
    "lon": 91.36
  },
  {
    "name": "Simla, Baksa, Assam",
    "lat": 26.6,
    "lon": 91.22
  },
  {
    "name": "Doomni, Baksa, Assam",
    "lat": 26.69,
    "lon": 91.38
  },
  {
    "name": "Goreswar, Tamulpur, Assam",
    "lat": 26.44,
    "lon": 91.56
  },
  {
    "name": "Darangamela, Tamulpur, Assam",
    "lat": 26.79,
    "lon": 91.53
  },
  {
    "name": "Kumarikata, Tamulpur, Assam",
    "lat": 26.65,
    "lon": 91.6
  },
  {
    "name": "Nagrijuli, Tamulpur, Assam",
    "lat": 26.69,
    "lon": 91.64
  },
  {
    "name": "Bogamati, Tamulpur, Assam",
    "lat": 26.8,
    "lon": 91.73
  },
  {
    "name": "Khandikar, Tamulpur, Assam",
    "lat": 26.47,
    "lon": 91.58
  },
  {
    "name": "GMCH Bhangagarh, Kamrup Metro, Assam",
    "lat": 26.15,
    "lon": 91.76
  },
  {
    "name": "MMCH Panbazar, Kamrup Metro, Assam",
    "lat": 26.18,
    "lon": 91.74
  },
  {
    "name": "BBCI Gopinath Nagar, Kamrup Metro, Assam",
    "lat": 26.16,
    "lon": 91.74
  },
  {
    "name": "Ayurvedic Hospital Jalukbari, Kamrup Metro, Assam",
    "lat": 26.15,
    "lon": 91.66
  },
  {
    "name": "ESI Hospital Beltola, Kamrup Metro, Assam",
    "lat": 26.12,
    "lon": 91.79
  },
  {
    "name": "Apollo Hospitals Christian Basti, Kamrup Metro, Assam",
    "lat": 26.15,
    "lon": 91.77
  },
  {
    "name": "GNRC Dispur, Kamrup Metro, Assam",
    "lat": 26.14,
    "lon": 91.79
  },
  {
    "name": "GNRC Six Mile, Kamrup Metro, Assam",
    "lat": 26.12,
    "lon": 91.81
  },
  {
    "name": "Pratiksha Hospital VIP Road, Kamrup Metro, Assam",
    "lat": 26.15,
    "lon": 91.81
  },
  {
    "name": "Downtown Hospital Dispur, Kamrup Metro, Assam",
    "lat": 26.13,
    "lon": 91.8
  },
  {
    "name": "Health City Khanapara, Kamrup Metro, Assam",
    "lat": 26.11,
    "lon": 91.81
  },
  {
    "name": "Narayana Amingaon, Kamrup Rural, Assam",
    "lat": 26.18,
    "lon": 91.68
  },
  {
    "name": "Excelcare Boragaon, Kamrup Metro, Assam",
    "lat": 26.13,
    "lon": 91.69
  },
  {
    "name": "Hayat Hospital Lal Ganesh, Kamrup Metro, Assam",
    "lat": 26.14,
    "lon": 91.73
  },
  {
    "name": "Marwari Hospital Athgaon, Kamrup Metro, Assam",
    "lat": 26.17,
    "lon": 91.73
  },
  {
    "name": "Nemcare Bhangagarh, Kamrup Metro, Assam",
    "lat": 26.16,
    "lon": 91.76
  },
  {
    "name": "Swagat Hospital Maligaon, Kamrup Metro, Assam",
    "lat": 26.16,
    "lon": 91.69
  },
  {
    "name": "Sanjeevani Maligaon, Kamrup Metro, Assam",
    "lat": 26.16,
    "lon": 91.69
  },
  {
    "name": "AMCH Dibrugarh, Dibrugarh, Assam",
    "lat": 27.46,
    "lon": 94.92
  },
  {
    "name": "Srishti Hospital, Dibrugarh, Assam",
    "lat": 27.48,
    "lon": 94.9
  },
  {
    "name": "Aditya Hospital, Dibrugarh, Assam",
    "lat": 27.46,
    "lon": 94.91
  },
  {
    "name": "Brahmaputra Hospital, Dibrugarh, Assam",
    "lat": 27.47,
    "lon": 94.91
  },
  {
    "name": "JMCH Jorhat, Jorhat, Assam",
    "lat": 26.74,
    "lon": 94.18
  },
  {
    "name": "Sanjivani Hospital Jorhat, Jorhat, Assam",
    "lat": 26.75,
    "lon": 94.2
  },
  {
    "name": "SMCH Silchar, Cachar, Assam",
    "lat": 24.78,
    "lon": 92.79
  },
  {
    "name": "Green Heals Hospital, Cachar, Assam",
    "lat": 24.81,
    "lon": 92.8
  },
  {
    "name": "TMCH Tezpur, Sonitpur, Assam",
    "lat": 26.65,
    "lon": 92.81
  },
  {
    "name": "Baptist Christian Hospital, Sonitpur, Assam",
    "lat": 26.63,
    "lon": 92.79
  },
  {
    "name": "FAAMCH Barpeta, Barpeta, Assam",
    "lat": 26.31,
    "lon": 90.02
  },
  {
    "name": "DMC Diphu, Karbi Anglong, Assam",
    "lat": 25.85,
    "lon": 93.43
  },
  {
    "name": "LMC North Lakhimpur, Lakhimpur, Assam",
    "lat": 27.24,
    "lon": 94.01
  },
  {
    "name": "Dhubri Medical College, Dhubri, Assam",
    "lat": 26.02,
    "lon": 89.98
  },
  {
    "name": "Nagaon Medical College, Nagaon, Assam",
    "lat": 26.35,
    "lon": 92.68
  },
  {
    "name": "Rangapara, Sonitpur, Assam",
    "lat": 26.81,
    "lon": 92.65
  },
  {
    "name": "Balipara, Sonitpur, Assam",
    "lat": 26.86,
    "lon": 92.77
  },
  {
    "name": "Jamugurihat, Sonitpur, Assam",
    "lat": 26.73,
    "lon": 92.93
  },
  {
    "name": "Sootea, Sonitpur, Assam",
    "lat": 26.74,
    "lon": 93.0
  },
  {
    "name": "Chariduar, Sonitpur, Assam",
    "lat": 26.9,
    "lon": 92.79
  },
  {
    "name": "Missamari, Sonitpur, Assam",
    "lat": 26.82,
    "lon": 92.62
  },
  {
    "name": "Thelamara, Sonitpur, Assam",
    "lat": 26.65,
    "lon": 92.53
  },
  {
    "name": "Bihaguri, Sonitpur, Assam",
    "lat": 26.65,
    "lon": 92.7
  },
  {
    "name": "Bindukuri, Sonitpur, Assam",
    "lat": 26.7,
    "lon": 92.75
  },
  {
    "name": "Barchalla, Sonitpur, Assam",
    "lat": 26.58,
    "lon": 92.48
  },
  {
    "name": "Nameri, Sonitpur, Assam",
    "lat": 26.93,
    "lon": 92.86
  },
  {
    "name": "Singri, Sonitpur, Assam",
    "lat": 26.6,
    "lon": 92.48
  },
  {
    "name": "Sirajuli, Sonitpur, Assam",
    "lat": 26.73,
    "lon": 92.45
  },
  {
    "name": "Belsiri, Sonitpur, Assam",
    "lat": 26.75,
    "lon": 92.4
  },
  {
    "name": "Rakshasmari, Sonitpur, Assam",
    "lat": 26.78,
    "lon": 92.38
  },
  {
    "name": "Hugrajuli, Sonitpur, Assam",
    "lat": 26.72,
    "lon": 92.32
  },
  {
    "name": "Borsola, Sonitpur, Assam",
    "lat": 26.62,
    "lon": 92.35
  },
  {
    "name": "Dekargaon, Sonitpur, Assam",
    "lat": 26.66,
    "lon": 92.81
  },
  {
    "name": "Parwa Chariali, Sonitpur, Assam",
    "lat": 26.64,
    "lon": 92.82
  },
  {
    "name": "Da Parbatia, Sonitpur, Assam",
    "lat": 26.62,
    "lon": 92.77
  },
  {
    "name": "Haleswar, Sonitpur, Assam",
    "lat": 26.67,
    "lon": 92.79
  },
  {
    "name": "Dolabari, Sonitpur, Assam",
    "lat": 26.63,
    "lon": 92.83
  },
  {
    "name": "Panchmile, Sonitpur, Assam",
    "lat": 26.67,
    "lon": 92.84
  },
  {
    "name": "Depota, Sonitpur, Assam",
    "lat": 26.64,
    "lon": 92.74
  },
  {
    "name": "Ketekibari, Sonitpur, Assam",
    "lat": 26.64,
    "lon": 92.8
  },
  {
    "name": "Deomornoi, Darrang, Assam",
    "lat": 26.48,
    "lon": 91.95
  },
  {
    "name": "Kalaigaon, Darrang, Assam",
    "lat": 26.54,
    "lon": 91.98
  },
  {
    "name": "Burhinagar, Darrang, Assam",
    "lat": 26.45,
    "lon": 91.92
  },
  {
    "name": "Aulachowka, Darrang, Assam",
    "lat": 26.46,
    "lon": 92.02
  },
  {
    "name": "Jaljali, Darrang, Assam",
    "lat": 26.41,
    "lon": 92.0
  },
  {
    "name": "Kuruwa, Darrang, Assam",
    "lat": 26.26,
    "lon": 91.85
  },
  {
    "name": "Bechimari, Darrang, Assam",
    "lat": 26.54,
    "lon": 92.15
  }
]